@id,@lon,@lat,name,4,city,street
309879651,21.4266878,41.9919017,Рамстор,2,Skopje,Sv. Kiril i Metodij
364985725,21.3649348,42.0068279,SP Planet,1,Skopje,Gjorche Petrov
375645834,21.3634616,42.0070862,Тинекс Ѓорче Петров,2,Skopje,Gjorche Petrov
386723243,22.0125082,41.4336677,Tinex,3,Kavadarci,Square Marshal Tito
416378486,21.2162734,41.5131208,Александрија,3,Makedonski Brod,Partizanska
416417027,21.4548174,41.9897519,Тинекс,2,Skopje,Булевар Јане Сандански
417322815,21.2164115,41.5139095,Filipos,1,Makedonski Brod,Ivo Lola Ribar
446388134,21.4688286,41.9845218,Веро,3,Skopje,Јане Сандански
459669395,21.4345769,41.9947502,Веро 7,0,Skopje,Kej 13 Noemvri
461665539,22.6414839,41.4382823,Tinex,3,Strumica,Булевар Маршал Тито
461665625,22.6419646,41.43816,Horizont,4,Strumica,Булевар Маршал Тито
462175886,22.6513455,41.4415567,My Market,3,Strumica,Гоце Делчев
462175894,22.6485615,41.4409897,Technomarket,2,Strumica,Kliment Ohridski
470599988,21.4370214,41.9925332,Tinex,2,Skopje,Mirche Acev
470616644,21.411176,41.9903083,Tinex,4,Skopje,Питу Гули
543381663,20.7337561,41.6613792,Аце,4,Mavrovo,R2235
543381664,20.7362141,41.6504797,Лазе,3,Mavrovo,R2235
569629582,21.4752382,41.9801204,Рептил Маркет,0,Skopje,Булевар Видое Смилевски Бато
570694121,20.6805797,41.1810037,Тинекс,0,Struga,L31221
577538728,21.4350123,42.0197651,Prince,4,Skopje,Ferid Murati
774767534,21.0151314,41.0857428,KAM market,4,Resen,Владимир Уљанов - Ленин
913077733,22.0097653,41.4399919,TD,2,Kavadarci,Bulevar Nikola Minchev
913077735,22.009204,41.439429,Bako&Stojna,3,Kavadarci,Mosha Pijade
913077736,22.0089787,41.4394773,DTS Market  Silvana & Dobri,1,Kavadarci,Mosha Pijade
913077747,22.0104271,41.4409129,TD - supermarket,3,Kavadarci,Булевар Македонија
933483954,21.4675141,41.9866616,Жито Маркет,3,Skopje,Јане Сандански
992716578,21.3089047,41.02582,MARKET IN,1,Bitola,Тодор Паница
1036948544,20.6788926,41.1815124,Балкопром,2,Struga,L31221
1263404485,21.5033827,42.0046326,Жито Маркет,4,Skopje,Маџари
1272901207,22.5004347,41.8866184,Mak Progres,0,Vinica,Никола Крев
1272901572,22.5041576,41.8853963,Zito,3,Vinica,Браќа Миладиновци
1353688706,20.9786298,41.993755,продавница,0,Tetovo,Brakja Miladinovi
1381585160,21.4383256,41.9813069,Рептил,2,Skopje,Тоне Томшиќ
1609094328,21.4752182,41.9798044,КАМ Маркет,4,Skopje,Булевар Видое Смилевски Бато
1609098405,21.4764231,41.9794894,Рамстор,4,Skopje,Булевар Видое Смилевски Бато
1615844916,21.3989021,42.0034268,КОСМО Тинекс,2,Skopje,Nikola Rusinski
1710583166,21.761961,41.7175431,Туш,4,Veles,Андон Шурков
1725831191,21.7248163,42.1388936,Му Маркет,3,Kumanovo,Oktomvriska Revolucija
1734513499,21.3396463,42.0076504,Жито маркет,0,Skopje,Кузман Шапкарев
1793209848,21.4323628,41.9810056,Кам Маркет,2,Skopje,Востаничка
1850351715,21.449974,42.0528304,Орашец,4,Kuchevishte,Бутелска 33
1851607184,21.4282537,41.988882,Кам Маркет,1,Skopje,50 Divizija
1860365652,21.4623331,42.0026311,КАМ Маркет,0,Skopje,Трифун Хаџијанев
1860365681,21.4414652,41.9930392,Веро 9,4,Skopje,Koco Racin
1860918584,21.7350929,42.1330452,Тинекс,3,Kumanovo,
1860919184,21.7272851,42.1371766,КАМ,3,Kumanovo,Oktomvriska Revolucija
1927096522,22.1920509,41.7368407,Тинекс,0,Shtip,Marshal Tito St.
1983027030,22.9190506,41.3740068,Supero,3,Drazhevo,R1402
2000505737,21.3922837,42.0048803,Ramstore,2,Skopje,Ljubljanska
2051140645,22.0923577,41.4874572,Супермаркет Дијана,2,Negotino,Marshal Tito
2123623372,20.907855,41.79495,boss,3,Gostivar,Brake Ginoski
2174953768,21.483821,41.9973587,Електрометал,1,Skopje,Перо Наков
2297036326,21.3762625,42.0022775,Tinex,0,Skopje,Пресека
2318187217,22.010536,41.4390428,KAM City,4,Kavadarci,Бул. Кочо Рацин
2318940889,22.6446147,41.4331994,КИТГО Маркет,4,Strumica,Крушевска Република
2320912372,22.4103982,41.918086,Hipo,3,Kochani,Димитар Влахов
2320923906,22.4098806,41.9226323,Zito Market,0,Kochani,Goce Delchev
2323219443,22.5030468,41.1394151,КИТ-ГО,2,Gevgelija,Димитар Влахов
2377968879,20.8114425,41.1093692,KAM Market,4,Ohrid,Булевар Туристичка
2377968908,20.7998326,41.1130654,Ramstore,4,Ohrid,Makedonski Prosvetiteli
2377969049,20.8127862,41.1096865,Discount Tinex,2,Ohrid,Никола Карев
2377969210,20.7999894,41.1132251,Tinex,2,Ohrid,Makedonski Prosvetiteli
2377969247,20.7980605,41.1171328,Kipper,3,Ohrid,Abas Emin
2395103183,21.356581,42.0197432,Market Kiki,0,Skopje,Моцартова
2397805537,21.3012831,41.0318267,Market Andzhela,1,Bitola,Методија Андонов-Ченто
2459550501,21.513671,41.9394701,Tinex Discount,1,Drachevo,Бранко Заревски
2459775710,21.5187223,41.9384385,Кам маркет,2,Skopje,Бранко Заревски
2459788307,21.5230194,41.9370886,Вајота 2,2,Drachevo,Иван Хаџиниколов
2459829020,21.5073363,41.9382051,Гиго Трејд,1,Drachevo,Јустинијан Први
2459829098,21.5071218,41.9384126,Кам,2,Drachevo,Јустинијан Први
2535205988,22.0148515,41.4227366,Dijana,2,Kavadarci,Страшо Пинџур
2578029312,22.3328574,42.1999647,пакет маркет,3,Kriva Palanka,Свети Јоаким Осоговски
2882345348,21.4533122,41.974857,Супер Тинекс,4,Skopje,Boris Trajkovski
2882345397,21.4838698,41.9844445,Рамстор,0,Skopje,Булевар Февруарски Поход
2883879847,21.4649937,41.9839638,Пазарче,0,Skopje,Јане Сандански
2884502076,21.4722684,41.9720378,ЗУР Маркет,0,Skopje,Mite Bogoevski
2918511309,20.9745375,41.8379549,Вали Маркет,2,Chegrane,R2233
3100114460,20.8005859,41.1159611,TOP Market,1,Ohrid,Kliment Ohridski
3162756961,22.466431,41.635403,Kit Go,0,Radovish,Кеј 8ми Септември
3162759361,22.463585,41.63606,Paket market,2,Radovish,22 Октомври
3162760861,22.464258,41.637826,Makom,1,Radovish,Партизанска
3162761361,22.4631378,41.6393152,Kit Go,2,Radovish,Кеј 8ми Септември
3162772764,22.4647748,41.6331599,Sloga,0,Radovish,Boulevard Aleksandar Makedonski
3162785061,22.462735,41.632422,Kit Go,3,Radovish,Bulevard Aleksandar Makedonski
3187755690,22.461591,41.637992,Rial,1,Radovish,Коста Сусинов
3187755761,22.46471,41.634405,Makom,3,Radovish,Samuilova
3304388859,20.7815067,41.1219875,Tamaro,2,Ohrid,Сатеска
3304388860,20.7829591,41.1232307,Skor,0,Ohrid,Goce Delcev
3428974493,21.441556,41.993327,DM,4,Skopje,Bulevar Kuzman Josifovski Pitu
3506695094,21.4010606,41.9938931,Кам маркет Козле,1,Skopje,Kozle
3614132047,21.3831193,42.0050579,Фреш маркет Бојди,0,Skopje,Boulevard Partizanski Odredi
3625177270,21.5507134,41.3441972,КАМ,3,Prilep,Kuzman Josifoski-Pitu
3630800652,21.5492167,41.3414029,Пата,3,Prilep,Dimo Dimoski-Narednikot
3633126813,21.4050875,41.996706,Стопанска Банка,0,Skopje,Mitropolit Teodosij Gologanov
3635145515,21.3914204,42.0017143,Кам маркет Тафталиџе,4,Skopje,Londonska
3647035693,21.7318363,42.1202041,Super Srk,4,Kumanovo,Титова Митровачка
3647036105,21.7334993,42.1210556,Paket Market,2,Kumanovo,Бранко Богдански Гуцман
3663767993,21.4152599,42.0035081,Рептил маркет,1,Skopje,Franklin Ruzvelt
3688676897,22.3360401,42.2054613,Zegin Healty Food,3,Kriva Palanka,Свети Јоаким Осоговски
3688683327,22.3361083,42.2071017,Paket Market / Пакет Маркет,2,Kriva Palanka,Свети Јоаким Осоговски
3694767035,22.8019192,41.9663717,Mederevec (Mini Market),4,Dzvegor,A3
3787515284,21.4403011,41.9823773,Веро,0,Skopje,Boris Trajkovski
3932076509,21.4416628,42.0248127,Кам Маркет,3,Skopje,Тале Христов
4124187300,22.3297009,42.201126,BE Market,0,Kriva Palanka,Херој Карпош
4151705280,21.4207815,41.9948735,Веро 5,1,Skopje,Митрополит Теодосиј Гологанов
4190222890,20.9771137,41.842915,Nusreti Magjik,1,Chegrane,R2233
4240279890,22.1927503,41.7369788,ХИТ Маркет,2,Shtip,Marshal Tito St.
4242845496,20.9771116,41.8428299,Хаџи Кемо,0,Chegrane,R2233
4247298889,22.2004899,41.7385684,КИТ ГО Супермаркет,3,Shtip,Hristian Todorovski Karposh St.
4247317445,22.1931572,41.7371532,KAM,4,Shtip,Marshal Tito St.
4247663689,20.8857735,41.8411753,IDEAL,3,Galate,R1206
4247663690,20.8856596,41.8398833,Kiper,4,Galate,R1206
4249213490,22.1902158,41.7379576,Грозделино,2,Shtip,Ванчо Прќе
4253064697,20.81112,41.12286,Tinex,1,Ohrid,7-mi Noemvri
4265274325,20.9903256,42.0054564,Ramstore,0,Tetovo,R1203
4281402096,21.3437147,41.0158544,Беком,2,Bitola,Makedonska Falanga
4321893087,21.4233757,41.9983625,Kapael Tobacco,3,Skopje,Boulevard Partizanski Odredi
4329964694,21.5508426,41.3446569,Tinex,0,Prilep,Gjorgji Delchev-Goce
4330037690,21.3311181,41.3368744,IGA Market,0,Krivogashtani,Filip Vtori
4338236491,20.8840178,41.8300832,SELO,0,Zubovce,R1206
4355085491,21.4718709,41.980756,ЗУР Маркет,2,Skopje,Булевар Видое Смилевски Бато
4355634895,21.4835479,41.9772578,Јовче,0,Skopje,Тодор Чангов
4355637591,21.4851324,41.9781331,Бина,3,Skopje,Тодор Чангов
4356193800,22.1984795,41.7416455,КАМ,4,Shtip,Sutyeska St.
4356245791,22.198854,41.7354588,КИТ-ГО,3,Shtip,Тодор Коларов
4357162596,22.1941597,41.7344453,БоБи,1,Shtip,Васил Догаџински
4357163390,22.1881355,41.7356982,Kid GO Market,2,Shtip,Васил Главинов
4362060291,21.5103158,41.9392257,Вајота 5,1,Drachevo,Славка Динкова
4362060392,21.5291548,41.9310608,Вајота 1,2,Drachevo,Јустинијан Први
4363550589,22.1959129,41.7383854,Зендолино,0,Shtip,Marshal Tito St.
4405700889,20.7576254,41.7020962,Pomahop Kom,4,Mavrovi Anovi,R1202
4407172492,20.7571924,41.7017221,Маркет Кај Петко,0,Mavrovi Anovi,R1202
4422378591,22.804392,41.967327,Стрела Пром,4,Dzvegor,Kuzmanska
4424580289,20.8144718,41.117125,ВИПС,1,Ohrid,Марко Цепенков
4426923095,21.6178398,41.9371567,Леон,4,Petrovec,Улица 22
4455202893,21.4674517,41.9854287,Кам Маркет,1,Skopje,Јане Сандански
4470349489,21.0129214,41.0867663,Пазар Ресен,1,Resen,11 Oktomvri
4484127494,21.444501,41.9760296,Гранап,1,Skopje,Hristo Tatarchev
4502453791,20.9269285,41.9411401,Market Beni,3,Kamenjane,R1206
4502463694,20.9297959,41.948539,Jeta e Re,2,Kamenjane,R1206
4502499491,20.9278787,41.9428509,Daman,3,Kamenjane,R1206
4502511289,20.9251687,41.9424416,Saufa,4,Kamenjane,R1206
4534091091,21.3294655,41.0300125,ШИК,3,Bitola,Tsar Samuil
4534094990,21.3251151,41.0235893,ШИК,4,Bitola,Партизанска
4534997789,21.3211694,41.024414,БАДО,2,Bitola,Партизанска
4555747519,20.9511304,41.5115584,Atva,4,Kichevo,Boulevard Osloboduvanje
4560338412,20.9627409,41.5126349,Ramstore,3,Kichevo,Boulevard Osloboduvanje
4587121601,22.0107461,41.4377707,MA-GO Prom,4,Kavadarci,Илинденска
4595777389,20.9790915,42.0050636,Кипер Маркет,0,Tetovo,Vidoe Smilevski Bato
4595777489,20.979931,42.0054756,Кам Маркет,4,Tetovo,Vidoe Smilevski Bato
4616754990,21.4085105,41.9972875,Рептил,3,Skopje,Ankarska
4616907889,22.010596,41.4413205,Diana 8,4,Kavadarci,Булевар Македонија
4658242491,21.5139779,42.0277156,Грогос,4,Stajkovci,Улица 6
4689435797,20.5958701,41.2683315,Нуредини 2016 (2),0,Labunishta,L31252
4689461289,20.5948705,41.2690711,Нуредини 2016,2,Labunishta,L31252
4708688990,22.1883931,41.992143,Boston probistip,4,Probishtip,Страшо Пинџур
4708689190,20.8141538,41.1177316,Marando ohrid,3,Ohrid,Питу Гули
4708689191,20.6806609,41.1809609,Tinex struga 1,1,Struga,L31221
4708689192,20.6700275,41.1769513,Ramstore struga marshal tito,1,Struga,Marshal Tito
4708713690,20.9710281,42.0084835,Tinex tetovo,4,Tetovo,Илинденска
4708713691,20.6775173,41.180146,Tinex struga,2,Struga,Боро Хаџиески
4708713692,22.3865111,41.9035531,Top bazar kocani,4,Kochani,A3
4708722189,20.9741832,42.0093957,Рамстор 2 Тетово,2,Tetovo,Boris Kidrič St
4708722190,20.961752,41.5194419,Dukla kicevo,2,Kichevo,Marsal Tito
4708722191,20.8130481,41.1095503,Tinex ohrid 2,1,Ohrid,Никола Карев
4708722192,20.9077023,41.7907152,Kultura gostivar,0,Gostivar,ul. Brake Ginoski
4708722290,20.9715177,41.9979362,Tendjerinja tetovo,4,Tetovo,Brakja Miladinovi
4710537461,21.4323528,41.9896032,TINEX,1,Skopje,Sv. Kiril i Metodij
4713993790,21.7171816,42.1298987,Goran daniel kumanovo,0,Kumanovo,Тонко Димов
4713993791,21.7318897,42.1388559,Steki prom kumanovo,4,Kumanovo,Веселин Маслеша
4714029490,21.7316379,42.1186471,Kima kumanovo,3,Kumanovo,Тоде Думба
4714029491,21.742493,42.1581571,Centrobiznis 1 kumanovo,0,Kumanovo,Улица 100
4714032290,21.7333698,42.1558735,Centrobiznis 2 kumanovo,3,Kumanovo,Улица 21
4714038489,21.7555938,42.1060671,Nami kom kumanovo,4,Dobroshane,R1204
4714038789,21.7414395,42.1448318,Centrobiznis 3 kumanovo,0,Kumanovo,Улица 300
4714038790,21.7348131,42.1576319,Stef kri kumanovo,3,Kumanovo,Улица 39
4732551922,21.4121462,42.0005257,Рептил,4,Skopje,Boulevard Partizanski Odredi
4735708625,21.7295036,42.1244911,Mar-bo kumanovo,3,Kumanovo,Тоде Думба
4735708626,21.7187075,42.135562,Tinex kumanovo,2,Kumanovo,Градски Плоштад
4739446421,22.3354896,42.2051708,Antiva k.palamka,1,Kriva Palanka,Illidenska
4774073690,21.4199718,41.9929149,Тинекс,2,Skopje,Vasil Gjorgov
4794189129,21.7836811,41.7165792,Pet Shop K-M  br.2,3,Veles,Гоце Делчев
4794191398,21.7658016,41.7143048,Pet Shop K-M br.1,1,Veles,11 ти Октомври
4833404423,22.0106513,41.4413948,Dijana,2,Kavadarci,Булевар Македонија
4889402965,21.4306785,41.9867649,Market Polo,1,Skopje,Bihakja
4900357523,21.4168689,42.001234,Рамстор Express Дебар Маало,4,Skopje,Blagoj Davkov
4902772821,22.7774987,41.971385,Кит-Го Супермаркет,3,Delchevo,Velјko Vlahovik
4906782421,22.775244,41.9670758,Кит-Го Супермаркет,2,Delchevo,N. J. Vapcarov
4906797824,22.7828039,41.9697285,Бисер,3,Delchevo,Gjorche Petrov
4906797825,22.7820669,41.9694518,Космос,2,Delchevo,Gjorche Petrov
4906817821,22.7795045,41.9700177,Коста груп,0,Delchevo,Pitu Guli
4907900822,22.7799853,41.9680062,Коста груп,0,Delchevo,Gjorche Petrov
4990143922,21.4512558,42.0560288,Кам Маркет,0,Radishani,Радишанска
5017111222,21.4175012,42.0007316,КАМ,0,Skopje,Blagoj Davkov
5040961621,21.4365241,42.0007151,Mak-Ultra,1,Skopje,Салих Асим
5072814322,21.4757273,41.9984456,Stokomak Magacin,4,Skopje,Kiro Gligorov
5075103022,21.5490394,41.3503406,Футура,0,Prilep,Prilepski Braniteli
5075103023,22.647951,41.4302406,Kis 2,3,Strumica,Младинска
5075103024,22.6294437,41.4384422,Kit-go market,0,Strumica,Stiv Naumov
5075103823,22.6528305,41.4463225,Roko 2000,4,Strumica,Гоце Делчев
5075103824,22.6408136,41.445272,Зендолино 8 - Струмица,2,Strumica,Ленинова
5075107622,21.5400419,41.3384652,Aliansa,3,Prilep,1 Maj
5075107624,22.6335517,41.4422023,Kis 4,0,Strumica,Моша Пијаде
5075107721,22.6426896,41.4364848,Zdavec strumica,4,Strumica,Дебарска
5075107722,22.6442899,41.4317489,Markator magacin,2,Strumica,Булевар Маршал Тито
5075878222,22.635881,41.4335847,Djuli 2,4,Strumica,Пиринска
5094009725,22.1799554,41.751114,KIT-GO Магацин,4,Shtip,R1204
5094009726,22.1761927,41.7569135,Хит Маркет Магацин,3,Shtip,Zheleznichka
5094009728,22.1910694,41.7463008,Пакет Маркет 27,4,Shtip,Булевар ЈНА
5094009729,22.2036689,41.7813247,Set union Karaorman,1,Star Karaorman,R2334
5094009730,22.1752605,41.7567982,Set Union Магацин Пакет Маркет,3,Shtip,Zheleznichka
5094009732,22.4745101,41.632333,Paket market 30,2,Radovish,Илија Алексов
5094009733,22.6444715,41.4385011,Kisi market 1,0,Strumica,Панче Пешев
5094009734,22.6513453,41.441659,Kisi 5 market,0,Strumica,Гоце Делчев
5094064022,22.1864366,41.7472866,Текома Магацин,2,Shtip,Астибо
5094064321,22.206591,41.7527018,Trakom Market Duzlak Stip,1,Shtip,Драги Крупишки
5094064322,22.6519392,41.4324702,Zdravec,3,Strumica,Kliment Ohridski
5094064721,22.6595336,41.4401622,Koda Magacin,0,Strumica,A4
5102511522,21.4276669,41.9964763,Тинекс центар 2,1,Skopje,Vasil Glavinov
5130533607,21.4286854,41.9934245,Деликатесен Тинекс,3,Skopje,Dame Gruev
5155434323,21.4371996,42.0236333,Кипер Маркет,1,Skopje,Syrija Imami
5155454122,21.4371972,42.0239903,Стоко Мак,3,Skopje,Босна и Херцеговина
5260413324,22.3109725,42.1924425,КАМ Маркет,2,Kriva Palanka,Свети Јоаким Осоговски
5286112857,21.4111987,42.0056203,Granap Market,4,Skopje,Nikola Tesla
5292130937,21.4558769,41.9879358,Ramstore,3,Skopje,Милан Зечар
5300509738,20.9153603,41.9223711,Кипер,3,Bogovinje,102
5316961184,22.7713264,41.9654181,Кит-Го Супермаркет,0,Delchevo,Маршал Тито
5319290221,20.9583245,41.9991961,БЕРО - ЖАМБО,4,Tetovo,108
5319290222,20.9589237,41.9990785,JYSK,2,Tetovo,108
5320408728,22.7721168,41.9648869,Извор Маркет,4,Delchevo,Marshal Tito
5320408731,22.7727191,41.96422,Жито Маркет,0,Delchevo,Marshal Tito
5323697760,21.3842555,42.0079128,Гранап,2,Skopje,Разловечко Востание
5334911021,21.350659,42.0245187,Кам,3,Novo Selo,Волче Наумчеси
5344777681,21.3704929,42.0075655,Reptil,1,Skopje,Boulevard Partizanski Odredi
5501673564,22.4985083,41.1486017,Supermarket S-53,1,Gevgelija,7-ми Ноември
5542434321,22.1921338,41.7393286,Тер Маркет,3,Shtip,29 ти Ноември
5598215760,21.393054,42.0065872,Vero,4,Skopje,Manapo
5672625678,21.7280094,42.1336226,Kjosar,1,Kumanovo,Oktomvriska Revolucija
5672629242,21.7283162,42.1328773,Elida,1,Kumanovo,Oktomvriska Revolucija
5761128221,21.0134783,41.0852468,Нов Пазар,1,Resen,Владимир Уљанов - Ленин
5761128523,21.0133908,41.0852775,Мицале,0,Resen,Владимир Уљанов - Ленин
5761128527,21.0135953,41.0906153,Свислион продавнива,0,Resen,Josif Josifoski-Sveshtarot
5761146421,21.0114252,41.0890885,Стар пазар,1,Resen,29 Noemvri
5765787361,21.3228577,41.0320861,Беком,0,Bitola,1 Maj
5829207731,21.4439477,41.9817349,KAM,1,Skopje,Михаил Чаков
5841674941,21.4220152,41.9990831,Tinex,1,Skopje,Boulevard Partizanski Odredi
5851203763,21.4159259,41.993198,Gramofon Vinyl Macedonia Makedonija,1,Skopje,Васил Ѓоргов
5851221676,20.9778769,42.0168566,ЗЕЦ Електроникс Тетово,3,Tetovo,Mirce Acev
5869210727,22.3133431,42.1932292,Боде,4,Kriva Palanka,Свети Јоаким Осоговски
5888215585,20.9521843,41.5083266,Maxi Market,1,Kichevo,Ilinden
5931030303,20.7956734,41.1191635,KAM Supermarket,2,Ohrid,Stiv Naumov
5999459087,21.7058314,42.139421,STC Supermarket 1,4,Kumanovo,11-ти Ноември
5999459088,21.7077221,42.1386079,STC Supermarket 2,0,Kumanovo,11-ти Ноември
6054048724,21.4177897,41.9994766,Маркет фратели,4,Skopje,Boulevard Partizanski Odredi
6054050787,21.4187447,41.9992364,Ројал,2,Skopje,Boulevard Partizanski Odredi
6058582666,21.5104508,42.011324,Рептил,4,Skopje,Методија Андонов Ченто
6103499860,20.8223449,41.121722,Don Market,2,Ohrid,Ристо Чадо
6145381754,21.3818169,42.0067318,Tinex,0,Skopje,Nikola Parapunov
6281683651,21.3340183,42.0078991,Kipper,4,Skopje,4 Juli
6402018885,21.1170108,42.0530902,heppi dmj,0,Janchishte,R2242
6405264386,21.4691912,41.9898103,M Market,3,Skopje,Булевар Асном
6640745637,21.7197153,42.1272126,Стокомак,3,Kumanovo,Biljanovska
6643176122,20.8109391,41.1115443,Market,3,Ohrid,Никола Карев
6645017479,21.7205675,42.1303546,RAM Store,4,Kumanovo,3 Македонска Ударна Бригада
6655621425,21.4089683,41.9978906,Super Tinex,3,Skopje,Атинска
6812639892,21.7082712,42.1355528,Elida,3,Kumanovo,11-ти Октомври
6814236609,21.4370024,42.0046727,Hajri Kompani,2,Skopje,Алберт Станиќ
6814246387,21.4189761,42.0015821,T market,3,Skopje,Дебарца
6814246717,21.4396745,42.0010275,Dm,2,Skopje,191
6815434687,21.4283826,42.0244715,Kit-Go,1,Skopje,Булевар Словенија
6821158390,21.4277103,41.992184,Healthy food by Zegin,0,Skopje,Sv. Kiril i Metodij
6827074190,21.4213409,41.9994318,Stokomak,3,Skopje,Дебарца
6827074191,21.4224806,41.9989821,Swisslion,1,Skopje,Boulevard Partizanski Odredi
6827083586,21.435694,42.0063897,Feki-Kom,1,Skopje,125
6830542204,20.8143305,41.1172658,Marlbopo,1,Ohrid,Питу Гули
6830542296,20.8130308,41.1202066,Top market,4,Ohrid,Марко Нестороски
6830542390,20.8130997,41.1229605,Schick Komerz,1,Ohrid,Питу Гули
6830542485,21.4346069,41.9910788,Stokomak,3,Skopje,11 Oktomvri
6831648792,20.8120861,41.1133538,Tamaro,1,Ohrid,Ванчо Питошески
6831648797,20.8076057,41.1114384,Delis,2,Ohrid,Јане Сандански
6831648802,20.8039108,41.1104279,Top market,1,Ohrid,Kej Makedonija
6831648821,20.8076362,41.1122553,Don,2,Ohrid,Dimitar Vlahov
6831648823,20.8108031,41.1139411,Bambi,1,Ohrid,Јане Сандански
6831648885,20.8132048,41.1157676,Ramstore express,3,Ohrid,Јане Сандански
6833100986,20.7981028,41.1135666,A1,3,Ohrid,Clement's University
6833103287,20.8094117,41.1225454,KAM,0,Ohrid,7-mi Noemvri
6833103390,20.8046409,41.1158272,Discount,4,Ohrid,Булевар Туристичка
6833103485,20.8078085,41.1219514,Tamaro,1,Ohrid,7-mi Noemvri
6833103486,20.8104074,41.1223075,Misa,0,Ohrid,7-mi Noemvri
6833103495,20.7992057,41.1173071,Kam,1,Ohrid,Goce Delcev
6833103503,20.8087989,41.1126656,Koshishta,4,Ohrid,Јане Сандански
6833103688,20.8043153,41.1159454,Hit,3,Ohrid,Булевар Туристичка
6837039493,20.8167418,41.1129412,Stop Shop,4,Ohrid,Карпош Војвода
6837039787,20.8063275,41.1083112,A1,3,Ohrid,Kej Makedonija
6837039886,20.8097357,41.1067374,Kiosk,0,Ohrid,Partizanska
6837039893,20.8161651,41.1132277,Bum,2,Ohrid,Карпош Војвода
6837039902,20.8082412,41.1139308,Mini market,2,Ohrid,Караорман
6837046291,20.6749179,41.1845082,Eurosalon,2,Struga,A2
6837103285,20.7956966,41.1173927,A1,4,Ohrid,Goce Delcev
6883647290,21.327488,41.998549,Рамстор,4,Skopje,Улица 20
6906971730,22.4553463,41.6282088,KAM,3,Radovish,Bulevard Aleksandar Makedonski
6913220785,21.5098008,41.9954171,Стокомак,2,Skopje,Валандовска
7082353719,22.6553198,41.4396981,Supermarket KAM,3,Strumica,A4
7086167661,20.6858723,41.1780327,NAM Market,3,Struga,Turistichka
7110711313,21.7208703,42.135741,Елида Маркет,0,Kumanovo,Иво Лола Рибар
7124138458,22.7223797,41.1837622,ТП Нана,3,Star Dojran,Маршал Тито
7373066524,22.199384,41.7492687,КАМ маркет,1,Shtip,Сремски Фронт
7373066526,22.1952957,41.7458124,Стокомак,4,Shtip,Сремски Фронт
7373066563,22.2006562,41.7498225,Супер - Кид Го,1,Shtip,Борис Крајгер
7500489645,22.655681,41.4374154,Neotek Systems,4,Strumica,Гоце Делчев
7616810680,22.6381527,41.4391987,Ramstore,2,Strumica,R2432
7626679089,21.5560579,41.3469593,Футура,4,Prilep,Brakja Lameski
7827651855,21.4815508,41.976006,Бобико ТП Колонијал,3,Skopje,Тодор Чангов
7836016474,21.9423848,41.8650102,Астра,3,Sveti Nikole,Плоштад Илинден
7836016477,21.935983,41.8632983,Астра,2,Sveti Nikole,Ударничка
7841105184,21.9372432,41.8673893,Пакет Маркет,0,Sveti Nikole,Karposheva
7841117308,21.9312266,41.866656,Астра,3,Sveti Nikole,Питу Гули
7846557942,21.4464861,42.0364195,Стокомак,1,Skopje,Марко Крале
7846569770,21.4458128,42.0372124,Жито Маркет,2,Skopje,Галичник
7904816923,21.942932,41.8673048,Зендолино,4,Sveti Nikole,Велко Влаховиќ
7904816927,21.9406323,41.8693536,Астра,1,Sveti Nikole,Јанко Глигоров
7968416195,20.6506671,41.1501381,Market Durim,3,Kalishta,R1208
8110003935,21.3375347,41.0333298,Ангромаркет,1,Bitola,Filip Vtori Makedonski
8124609017,21.4672422,42.0036961,Кит го,3,Skopje,Бапчор
8492059617,21.3981423,41.9980345,Ramstore,3,Skopje,Prashka
8492060119,21.3962482,41.998706,Super TINEX,1,Skopje,Prashka
8594634228,21.5563598,41.3429296,Стокомак,0,Prilep,Metodija Shatorov-Sharlo
8646562196,21.4097719,42.0054049,La Noi - Mini Shop,0,Skopje,Orce Nikolov
8855891131,22.6447518,41.4308037,KAM,4,Strumica,Булевар Маршал Тито
8868776220,21.4485408,41.9855334,КАМ Маркет,2,Skopje,Венијамин Мачуковски
8976096528,21.4514677,42.0578416,Кипер Маркет,3,Radishani,Радишанска
8989238747,21.4516577,42.0577735,Стокомак,1,Radishani,Радишанска
9002605509,22.503093,41.1392816,Adziko Home Center,3,Gevgelija,Димитар Влахов
9091826490,21.5601296,41.3435846,Футура,3,Prilep,Aleksandar Makedonski
9149662392,21.3280428,41.0218074,Стокомак,3,Bitola,Григор Прличев
9152684858,21.5532739,41.3490361,Футура,1,Prilep,Krume Volnaroski
9161033020,20.8020598,41.1135902,Kipper,1,Ohrid,Геопрактика
9161046822,20.7939656,41.1132684,Papa's,3,Ohrid,Ilindenska
9200216059,21.4222398,41.9974123,Reptil,0,Skopje,Borka Taleski-Modernoto
9200216060,21.4180198,41.9959161,Step,4,Skopje,Vasil Stefanovski
9200216073,21.4776722,41.9873148,Alka-U B,3,Skopje,Булевар Асном
9200216544,20.9521165,41.5068877,Kipper,4,Kichevo,Ilinden
9200216555,21.415282,41.9983774,Sur,0,Skopje,Владимир Полежановски
9219174417,20.8068937,41.1241359,Стокомак,0,Ohrid,Egejska
9244180287,21.4589135,41.9843604,КАМ маркет,4,Skopje,Васко Карангелески
9244195697,21.4555933,41.984756,Стокомак,0,Skopje,Вангел Тодоровски
9244235991,21.4510086,41.9847803,Рамстор,1,Skopje,Булевар III Македонска Бригада
9244250664,21.4556365,41.9828854,ЗУР,0,Skopje,Васко Карангелески
9244268507,21.4483803,41.9888605,Стокомак,0,Skopje,Симеон Кавракиров
9244283951,21.461333,41.9887772,Тинекс,0,Skopje,Bulevard Jane Sandanski
9438265417,21.4158463,41.992847,Стикомак,3,Skopje,Васил Ѓоргов
9632225916,21.5488825,41.3407355,КАМ,1,Prilep,Andon Slabejkoski
9654388464,21.5520326,41.3431136,Марфил,0,Prilep,1 Maj
9909733636,21.3369949,41.0327799,Kipper,4,Bitola,Ordan Nikolov
10046485462,20.6857671,41.1771073,netto,3,Struga,Туристичка
10046672209,20.6738392,41.1774959,Kipper,4,Struga,Marshal Tito
10067815433,22.4639658,41.633758,Stokomak,1,Radovish,Samuilova
10067815434,22.4700087,41.6339241,Kiper,2,Radovish,Ул. Шампион
10074605718,21.4147315,41.9812448,Магнит,4,Skopje,салвадор аљенде
10174642577,22.5149349,41.8829964,Пакет Маркет,2,Vinica,Партизанска
10202493072,20.6717018,41.1770681,Netto,3,Struga,Marshal Tito
10202493074,20.671331,41.1782108,Миса,0,Struga,Elpida Karamandi
10232921181,21.5650971,41.3442023,Кипер,1,Prilep,Oktomvriska
1000000032490361,21.4048578,41.9970061,Веро 2,4,Skopje,Mitropolit Teodosij Gologanov
1000000032530189,21.3902944,42.0011559,СП Маркет Тафталиџе,0,Skopje,Moskovska
1000000032530316,21.3951135,42.0042355,Тинекс маркет,1,Skopje,Nikola Rusinski
1000000037977769,21.4776619,41.9963111,Super Tinex,2,Skopje,Pero Nakov
1000000038085854,21.316243,41.0227783,Tinex,2,Bitola,ASNOM
1000000038319553,21.3349004,41.0318457,Безистен,1,Bitola,Filip Vtori Makedonski
1000000038616803,21.3351604,41.0290507,Веро,3,Bitola,Широк Сокак
1000000083938482,20.9807298,42.0072108,Веро,3,Tetovo,Vidoe Smilevski Bato
1000000120656727,21.4436912,41.97716,ДМ,4,Skopje,Народни Херои
1000000120974473,21.4452347,41.9718766,Кам Маркет,0,Skopje,Hristo Tatarchev
1000000140100014,21.4373488,41.9579394,Давидов Сопиште,1,Skopje,Христо Татарчев 24
1000000155686286,21.5858883,41.9897911,My Market,0,Marino,Улица 532
1000000159159736,21.7841484,41.7151784,Кам,2,Veles,8-ми Септември
1000000163003845,21.4287725,41.9836982,Рептил,0,Skopje,Востаничка
1000000174144792,21.4079449,42.0029704,Tinex,3,Skopje,Веселин Маслеша
1000000174347119,21.4515704,42.0562297,Рептил,1,Radishani,Радишанска
1000000174347121,21.4516522,42.0575371,Гиго Трејд,1,Radishani,Радишанска
1000000175292226,21.4608541,42.0107898,Жито Маркет 43,2,Skopje,Филип Филиповиќ
1000000175451798,21.4672107,42.0039391,Цибус маркет,3,Skopje,В'мбел
1000000175890713,21.4355485,42.0159935,Рамстор - Чаир,0,Skopje,Ѓорги поп Христов
1000000179747895,21.4532111,41.9818881,Тинекс,2,Skopje,3 Makedonska Brigada
1000000187211072,21.728167,42.1564144,АЛФИ,4,Kumanovo,Улица 7
1000000192121435,21.3382184,41.0336842,ШИК СУПЗР ДИСКОНТ,1,Bitola,St Prohor Pchinski
1000000220298544,22.5527096,41.1287497,Hellenic Duty Free Shop,3,Tsoliades,Thessaloniki - Evzonoi Highway
1000000223381752,21.4438255,41.9769194,Кит Го,1,Skopje,Народни Херои
1000000228159812,20.9643711,41.9967012,Prince 2,0,Tetovo,Vidoe Smilevski Bato
1000000228746727,21.5025205,42.0065629,Тинекс,3,Skopje,Јужноморавски Бригади
1000000232361537,22.6503502,41.4287275,Gold Market,0,Strumica,Ѓорги Василев
1000000245839091,22.1977746,41.7443966,Супер Кид-Го,0,Shtip,5ти Конгрес
1000000250274769,21.4506231,41.9891213,ТЦ Скопјанка,2,Skopje,Bulevar Kuzman Josifovski Pitu
1000000251145740,21.375814,42.0072125,Зур,0,Skopje,Петар Чаулев
1000000251602323,21.3743065,42.0103679,Кам Маркет,2,Skopje,Aco Shopov
1000000284613221,21.4326702,41.9761939,Supermarket,1,Skopje,Пржино
1000000301761698,21.4525775,41.9751955,Ramstore,0,Skopje,Борис Трајковски
1000000337184512,21.4339996,42.0160405,Mini Market,0,Skopje,Ѓорги поп Христов
1000000375776404,21.2173586,41.5077695,Александрија,2,Makedonski Brod,Marshal Tito
1000000405877741,21.3877062,42.0140245,Tinex,2,Skopje,Skupi
1000000406043677,21.518485,41.3625146,Стибера,4,Prilep,Jordan Chopela-Kulak
1000000411111681,21.3876478,41.9999378,Super Tediko,2,Skopje,Budimpestanska
1000000455712852,21.4167805,41.9930588,Ramstor,1,Skopje,Vasil Gjorgov
1000000455835083,21.5173422,42.0130438,S Market,3,Skopje,Metodija Andonov Chento
1000000476397811,21.4453385,42.0142998,Веро,4,Skopje,Булевар Христијан Тодоровски Карпош
1000000495481035,21.7181585,42.1378405,Cepe kumanovo,3,Kumanovo,Доне Божинов
1000000510526921,21.7259902,42.1358229,Duboprom,1,Kumanovo,Иво Лола Рибар
1000000542428719,21.3863951,42.0054375,Zur Market,2,Skopje,Волгоградска
1000000546659780,21.388564,42.0079593,Tinex 4,4,Skopje,Вич
1000000547102982,21.4122303,42.0032604,ЗУР Маркет,0,Skopje,Руѓер Бошковиќ
1000000569601144,20.8041429,41.1183888,Тамаро,0,Ohrid,7-mi Noemvri
1000000572339612,20.9612811,41.9937795,Рамстор,2,Tetovo,R2233
1000000579389717,20.6708361,41.1777359,Тинекс,2,Struga,Јабланица
1000000608077962,20.8975074,41.7951439,Konsum,4,Gostivar,Jna
1000000670540185,21.4469097,42.0013838,Zlaten Kup Market,0,Skopje,Петре Георгиев
1000000706686939,21.7195655,42.1267035,Елида Маркет,1,Kumanovo,Народна Револуција
1000000717943745,21.3382482,41.0334243,KAM,4,Bitola,Debarca
1000000721977894,20.8955312,41.7954714,ETC,0,Gostivar,Jna
1000000765858549,20.9155622,41.8031401,Mega Market Montenegro,3,Gostivar,Ilindenska
1000000765858551,20.9117395,41.7885107,Super Market Montenegro,0,Gostivar,Драге Тодороски
1000000810054463,21.5414589,41.3545194,Тобако,3,Prilep,Prilepski Braniteli
1000000839346262,21.934631,41.8683567,Крис-Деј,3,Sveti Nikole,Крсте Мисирков
1000000840307215,21.9343156,41.8686028,Астра,3,Sveti Nikole,Karposheva
1000000857860053,21.5446451,41.3361279,Форум,1,Prilep,Aleksandar Makedonski
1000000864335692,21.5644149,41.3519736,Футура 12,3,Prilep,Panko Brashnarov
1000000963443702,21.3132468,41.0231465,Жито Леб,3,Bitola,Ружа Делчева
1000000991663709,21.3119866,41.0271592,Веро Џамбо,4,Bitola,Игњат Атанасовски
1000000991665037,21.3125149,41.0265271,Веро,0,Bitola,Игњат Атанасовски
1000001038863347,21.9357995,41.8598126,Астра,3,Sveti Nikole,Септемвриска
1000001041572864,21.6026983,41.8727516,Зур Маркет,3,Zelenikovo,R117
1000001054290139,21.3105261,41.4426808,Лато Комерц,4,Lazhani,R2335
1000001083452421,20.8905809,41.8746476,Kipper,2,Negotino,R1206
1000001107787528,22.7151415,41.193769,Солун 53,1,Star Dojran,Маршал Тито
1000001109140236,21.5542361,41.3443141,Тинекс 2,3,Prilep,Борка Талески-Модерното
1000001112148586,22.5151981,41.8829802,Пакет Маркет,3,Vinica,Партизанска
